[2025-04-09 22:37:20.591618] [0x00007f006e7d1f80] [info] [0x00010092] [1] Initial timestamp, Current time [s], User-defined position x [m], User-defined position y [m], User-defined position z [m], User-defined velocity x [m/s], User-defined velocity y [m/s], User-defined velocity z [m/s], User-defined acceleration x [m/s^2], User-defined acceleration y [m/s^2], User-defined acceleration z [m/s^2], User-defined yaw [rad], User-defined yaw_dot [rad/s], User-defined yaw_dot_dot [rad/s^2], Odometry time [s], Position x [m], Position y [m], Position z [m], Quaternion q0 [-], Quaternion q1 [-], Quaternion q2 [-], Quaternion q3 [-], Velocity x [m/s], Velocity y [m/s], Velocity z [m/s], Angular velocity x [rad/s], Angular velocity y [rad/s], Angular velocity z [rad/s], Roll [rad], Pitch [rad], Yaw [rad], Algorithm execution time [us], Mu translational raw x [N], Mu translational raw y [N], Mu translational raw z [N], Mu translational x [N], Mu translational y [N], Mu translational z [N], U control input U1 [N], U control input U2 [Nm], U control input U3 [Nm], U control input U4 [Nm], Roll desired [rad], Pitch desired [rad], Roll_dot desired [rad/s], Pitch_dot desired [rad/s], Roll_dot_dot desired [rad/s^2], Pitch_dot_dot desired [rad/s^2], Roll_dot [rad/s], Pitch_dot [rad/s], Yaw_dot [rad/s], Thrust motors QUADCOPTER T1 [N], Thrust motors QUADCOPTER T2 [N], Thrust motors QUADCOPTER T3 [N], Thrust motors QUADCOPTER T4 [N], Thrust motors normalized QUADCOPTER T1 [-], Thrust motors normalized QUADCOPTER T2 [-], Thrust motors normalized QUADCOPTER T3 [-], Thrust motors normalized QUADCOPTER T4 [-], Thrust motors X8COPTER T1 [N], Thrust motors X8COPTER T2 [N], Thrust motors X8COPTER T3 [N], Thrust motors X8COPTER T4 [N], Thrust motors X8COPTER T5 [N], Thrust motors X8COPTER T6 [N], Thrust motors X8COPTER T7 [N], Thrust motors X8COPTER T8 [N], Thrust motors normalized X8COPTER T1 [-], Thrust motors normalized X8COPTER T2 [-], Thrust motors normalized X8COPTER T3 [-], Thrust motors normalized X8COPTER T4 [-], Thrust motors normalized X8COPTER T5 [-], Thrust motors normalized X8COPTER T6 [-], Thrust motors normalized X8COPTER T7 [-], Thrust motors normalized X8COPTER T8 [-], Roll error [rad], Pitch error [rad], Yaw error [rad], Outer loop Proportional term x [-], Outer loop Proportional term y [-], Outer loop Proportional term z [-], Outer loop Integral term x [-], Outer loop Integral term y [-], Outer loop Integral term z [-], Outer loop Derivative term x [-], Outer loop Derivative term y [-], Outer loop Derivative term z [-], Outer loop Dynamic Inversion term x [-], Outer loop Dynamic Inversion term y [-], Outer loop Dynamic Inversion term z [-], Inner loop Proportional term x [-], Inner loop Proportional term y [-], Inner loop Proportional term z [-], Inner loop Integral term x [-], Inner loop Integral term y [-], Inner loop Integral term z [-], Inner loop Derivative term x [-], Inner loop Derivative term y [-], Inner loop Derivative term z [-], Inner loop Dynamic Inversion term x [-], Inner loop Dynamic Inversion term y [-], Inner loop Dynamic Inversion term z [-]
[2025-04-09 22:37:20.591618] [0x00007f006e7d1f80] [info] [0x00010092] [2] 1.106930e+00, 1.000000e-01, 2.536292e-67, 1.902076e-68, -6.802353e-68, 7.310364e-50, 5.482361e-51, -1.960645e-50, 1.580302e-32, 1.185137e-33, -4.238380e-33, 0.000000e+00, 0.000000e+00, 0.000000e+00, nan, 2.930000e-02, 9.303813e-13, -5.024998e-02, nan, nan, nan, nan, -1.104036e-16, -6.555222e-18, -1.606531e-06, -7.420822e-16, -7.759239e-16, -6.758725e-16, 7.658151e-16, -1.255982e-16, -1.210801e-14, nan, nan, nan, nan, 0.000000e+00, 0.000000e+00, 0.000000e+00, 1.924970e+01, -3.665622e-05, 1.231031e-01, 3.163269e-05, 0.000000e+00, 0.000000e+00, -5.301415e-13, 1.669631e-02, -1.019654e-10, 3.211306e+00, nan, nan, nan, nan, nan, nan, nan, nan, nan, nan, nan, 2.231164e+00, 2.581176e+00, 2.580470e+00, 2.232040e+00, 2.231955e+00, 2.580386e+00, 2.581261e+00, 2.231249e+00, nan, nan, nan, nan, nan, nan, nan, nan, nan, nan, nan, nan, nan, nan, nan, nan, nan, nan, nan, nan, 0.000000e+00, nan, nan, nan, nan, nan, nan, nan, nan, nan, nan, nan, nan, nan, nan, nan
[2025-04-09 22:37:20.649632] [0x00007f006e7d1f80] [info] [0x00010092] [3] 1.164799e+00, 1.050000e-01, 4.248938e-09, 3.181664e-10, -1.139173e-09, 3.394221e-06, 2.540677e-07, -9.099370e-07, 2.031607e-03, 1.519756e-04, -5.445624e-04, 0.000000e+00, 0.000000e+00, 0.000000e+00, nan, 2.929390e-02, 7.759936e-11, -5.025313e-02, nan, nan, nan, nan, -1.219159e-03, 1.533377e-08, -6.301733e-04, 2.716802e-08, 4.060506e-03, 4.621138e-08, 1.358432e-10, 2.030253e-05, 2.310462e-10, nan, nan, nan, nan, 0.000000e+00, 0.000000e+00, 0.000000e+00, 1.924609e+01, 9.772643e-05, 1.194065e-01, 2.475870e-05, 0.000000e+00, 0.000000e+00, 1.753199e-05, 3.013038e-02, 3.370217e-03, 2.698156e+00, nan, nan, nan, nan, nan, nan, nan, nan, nan, nan, nan, 2.236198e+00, 2.575551e+00, 2.574707e+00, 2.236591e+00, 2.236817e+00, 2.574932e+00, 2.575326e+00, 2.235972e+00, nan, nan, nan, nan, nan, nan, nan, nan, nan, nan, nan, nan, nan, nan, nan, nan, nan, nan, nan, nan, 0.000000e+00, nan, nan, nan, nan, nan, nan, nan, nan, nan, nan, nan, nan, nan, nan, nan
[2025-04-09 22:37:20.711373] [0x00007f006e7d1f80] [info] [0x00010092] [4] 1.227927e+00, 1.100000e-01, 6.758951e-08, 5.053519e-09, -1.811493e-08, 2.695728e-05, 2.013997e-06, -7.223658e-06, 8.047996e-03, 6.005008e-04, -2.155961e-03, 7.457213e-02, -2.841656e-02, -4.133048e-02, nan, 2.928194e-02, 7.759944e-11, -5.025929e-02, nan, nan, nan, nan, -2.393285e-03, 2.282627e-14, -1.232443e-03, 1.841640e-12, 7.970869e-03, -1.082753e-12, 1.358524e-10, 6.015688e-05, 2.310462e-10, nan, nan, nan, nan, 0.000000e+00, 0.000000e+00, 0.000000e+00, 1.924473e+01, 5.942118e-03, 1.101468e-01, 3.632018e-02, 0.000000e+00, 0.000000e+00, 1.098800e-03, 4.063822e-02, 2.081053e-01, 2.117148e+00, nan, nan, nan, nan, nan, nan, nan, nan, nan, nan, nan, 1.802212e+00, 3.022682e+00, 2.100967e+00, 2.696505e+00, 2.710216e+00, 2.114678e+00, 3.008971e+00, 1.788501e+00, nan, nan, nan, nan, nan, nan, nan, nan, nan, nan, nan, nan, nan, nan, nan, nan, nan, nan, nan, nan, 0.000000e+00, nan, nan, nan, nan, nan, nan, nan, nan, nan, nan, nan, nan, nan, nan, nan
[2025-04-09 22:37:20.762585] [0x00007f006e7d1f80] [info] [0x00010092] [5] 1.278634e+00, 1.150000e-01, 3.401888e-07, 2.539631e-08, -9.114331e-08, 9.032131e-05, 6.735014e-06, -2.419243e-05, 1.793272e-02, 1.334594e-03, -4.801108e-03, 7.442953e-02, -2.862408e-02, -4.167973e-02, nan, 2.926739e-02, 3.460889e-06, -5.027158e-02, nan, nan, nan, nan, -2.908773e-03, 6.921478e-04, -2.456653e-03, 4.257254e-04, 1.015472e-02, 7.453634e-03, 2.131951e-06, 1.109304e-04, 3.726845e-05, nan, nan, nan, nan, 0.000000e+00, 0.000000e+00, 0.000000e+00, 1.924175e+01, 1.477531e-03, 1.019970e-01, 3.025664e-02, 0.000000e+00, 0.000000e+00, 1.387816e-03, 4.861248e-02, 6.305517e-02, 1.609187e+00, nan, nan, nan, nan, nan, nan, nan, nan, nan, nan, nan, 1.884042e+00, 2.929805e+00, 2.169980e+00, 2.637049e+00, 2.640458e+00, 2.173389e+00, 2.926396e+00, 1.880633e+00, nan, nan, nan, nan, nan, nan, nan, nan, nan, nan, nan, nan, nan, nan, nan, nan, nan, nan, nan, nan, 0.000000e+00, nan, nan, nan, nan, nan, nan, nan, nan, nan, nan, nan, nan, nan, nan, nan
[2025-04-09 22:37:20.813895] [0x00007f006e7d1f80] [info] [0x00010092] [6] 1.330429e+00, 1.200000e-01, 1.068926e-06, 7.967632e-08, -2.862850e-07, 2.125401e-04, 1.581784e-05, -5.690324e-05, 3.157091e-02, 2.343434e-03, -8.447375e-03, 7.428589e-02, -2.883336e-02, -4.203193e-02, nan, 2.924863e-02, 1.059411e-05, -5.028804e-02, nan, nan, nan, nan, -3.752358e-03, 1.426602e-03, -3.293045e-03, 1.705105e-03, 1.492020e-02, 1.517323e-02, 1.066872e-05, 1.855309e-04, 1.131351e-04, nan, nan, nan, nan, 0.000000e+00, 0.000000e+00, 0.000000e+00, 1.924313e+01, -4.960556e-03, 8.319416e-02, 2.402994e-02, 0.000000e+00, 0.000000e+00, 9.411671e-04, 5.341042e-02, -8.358949e-02, 9.802920e-01, nan, nan, nan, nan, nan, nan, nan, nan, nan, nan, nan, 1.981290e+00, 2.818045e+00, 2.228743e+00, 2.593485e+00, 2.582039e+00, 2.217297e+00, 2.829491e+00, 1.992736e+00, nan, nan, nan, nan, nan, nan, nan, nan, nan, nan, nan, nan, nan, nan, nan, nan, nan, nan, nan, nan, 0.000000e+00, nan, nan, nan, nan, nan, nan, nan, nan, nan, nan, nan, nan, nan, nan, nan
[2025-04-09 22:37:20.866864] [0x00007f006e7d1f80] [info] [0x00010092] [7] 1.382909e+00, 1.250000e-01, 2.594519e-06, 1.930924e-07, -6.946297e-07, 4.120973e-04, 3.060949e-05, -1.102811e-04, 4.884930e-02, 3.616361e-03, -1.306259e-02, 7.414119e-02, -2.904441e-02, -4.238710e-02, nan, 2.922574e-02, 2.018203e-05, -5.030716e-02, nan, nan, nan, nan, -4.577565e-03, 1.917502e-03, -3.824027e-03, 1.902640e-03, 1.984120e-02, 2.132033e-02, 2.020699e-05, 2.847353e-04, 2.197382e-04, nan, nan, nan, nan, 0.000000e+00, 0.000000e+00, 0.000000e+00, 1.924845e+01, -9.076200e-03, 5.824252e-02, 1.893791e-02, 0.000000e+00, 0.000000e+00, 3.988601e-05, 5.478323e-02, -1.762679e-01, 2.992134e-01, nan, nan, nan, nan, nan, nan, nan, nan, nan, nan, nan, 2.076250e+00, 2.714921e+00, 2.262416e+00, 2.570640e+00, 2.549698e+00, 2.241473e+00, 2.735864e+00, 2.097193e+00, nan, nan, nan, nan, nan, nan, nan, nan, nan, nan, nan, nan, nan, nan, nan, nan, nan, nan, nan, nan, 0.000000e+00, nan, nan, nan, nan, nan, nan, nan, nan, nan, nan, nan, nan, nan, nan, nan
[2025-04-09 22:37:20.920221] [0x00007f006e7d1f80] [info] [0x00010092] [8] 1.436781e+00, 1.300000e-01, 5.348695e-06, 3.974457e-07, -1.431492e-06, 7.069139e-04, 5.240408e-05, -1.890912e-04, 6.965618e-02, 5.142871e-03, -1.861504e-02, 7.399544e-02, -2.925724e-02, -4.274525e-02, nan, 2.919990e-02, 3.115749e-05, -5.032757e-02, nan, nan, nan, nan, -5.168103e-03, 2.194977e-03, -4.081731e-03, 1.174228e-03, 2.306609e-02, 2.601324e-02, 2.612266e-05, 4.000627e-04, 3.498071e-04, nan, nan, nan, nan, 0.000000e+00, 0.000000e+00, 0.000000e+00, 1.925760e+01, -1.091689e-02, 3.057336e-02, 1.489413e-02, 0.000000e+00, 0.000000e+00, -1.076034e-03, 5.270565e-02, -2.208674e-01, -3.885998e-01, nan, nan, nan, nan, nan, nan, nan, nan, nan, nan, nan, 2.165063e+00, 2.624147e+00, 2.276984e+00, 2.562606e+00, 2.537416e+00, 2.251794e+00, 2.649337e+00, 2.190253e+00, nan, nan, nan, nan, nan, nan, nan, nan, nan, nan, nan, nan, nan, nan, nan, nan, nan, nan, nan, nan, 0.000000e+00, nan, nan, nan, nan, nan, nan, nan, nan, nan, nan, nan, nan, nan, nan, nan
[2025-04-09 22:37:20.971232] [0x00007f006e7d1f80] [info] [0x00010092] [9] 1.487791e+00, 1.350000e-01, 9.851397e-06, 7.308775e-07, -2.635617e-06, 1.114356e-03, 8.244359e-05, -2.979414e-04, 9.388141e-02, 6.912621e-03, -2.507345e-02, 7.384862e-02, -2.947187e-02, -4.310641e-02, nan, 2.917276e-02, 4.279206e-05, -5.034798e-02, nan, nan, nan, nan, -5.428862e-03, 2.326775e-03, -4.080391e-03, -9.675159e-05, 2.372531e-02, 2.993840e-02, 2.570767e-05, 5.186854e-04, 4.995022e-04, nan, nan, nan, nan, 0.000000e+00, 0.000000e+00, 0.000000e+00, 1.927051e+01, -1.111736e-02, 1.915786e-03, 1.137753e-02, 0.000000e+00, 0.000000e+00, -2.237945e-03, 4.725582e-02, -2.313152e-01, -1.061635e+00, nan, nan, nan, nan, nan, nan, nan, nan, nan, nan, nan, 2.251050e+00, 2.540923e+00, 2.282138e+00, 2.561141e+00, 2.535489e+00, 2.256485e+00, 2.566576e+00, 2.276703e+00, nan, nan, nan, nan, nan, nan, nan, nan, nan, nan, nan, nan, nan, nan, nan, nan, nan, nan, nan, nan, 0.000000e+00, nan, nan, nan, nan, nan, nan, nan, nan, nan, nan, nan, nan, nan, nan, nan
[2025-04-09 22:37:21.022088] [0x00007f006e7d1f80] [info] [0x00010092] [10] 1.537566e+00, 1.400000e-01, 1.670803e-05, 1.237610e-06, -4.468402e-06, 1.651244e-03, 1.219187e-04, -4.412843e-04, 1.214164e-01, 8.915423e-03, -3.240701e-02, 7.370072e-02, -2.968831e-02, -4.347059e-02, nan, 2.914595e-02, 5.470405e-05, -5.036699e-02, nan, nan, nan, nan, -5.363014e-03, 2.382252e-03, -3.802601e-03, -1.527998e-03, 2.177842e-02, 3.405052e-02, 1.816526e-05, 6.275737e-04, 6.697572e-04, nan, nan, nan, nan, 0.000000e+00, 0.000000e+00, 0.000000e+00, 1.928729e+01, -1.041984e-02, -2.749573e-02, 7.651490e-03, 0.000000e+00, 0.000000e+00, -3.350870e-03, 3.852219e-02, -2.222751e-01, -1.717138e+00, nan, nan, nan, nan, nan, nan, nan, nan, nan, nan, nan, 2.342246e+00, 2.455533e+00, 2.288289e+00, 2.557577e+00, 2.533534e+00, 2.264246e+00, 2.479576e+00, 2.366290e+00, nan, nan, nan, nan, nan, nan, nan, nan, nan, nan, nan, nan, nan, nan, nan, nan, nan, nan, nan, nan, 0.000000e+00, nan, nan, nan, nan, nan, nan, nan, nan, nan, nan, nan, nan, nan, nan, nan
[2025-04-09 22:37:21.073544] [0x00007f006e7d1f80] [info] [0x00010092] [11] 1.589546e+00, 1.450000e-01, 2.660674e-05, 1.967693e-06, -7.113122e-06, 2.333858e-03, 1.719695e-04, -6.234194e-04, 1.521541e-01, 1.114125e-02, -4.058534e-02, 7.355173e-02, -2.990658e-02, -4.383780e-02, nan, 2.914845e-02, 1.008452e-04, -5.037155e-02, nan, nan, nan, nan, 5.011690e-04, 9.229696e-03, -9.112214e-04, -5.338213e-02, -5.920447e-02, 1.122435e-01, -2.484762e-04, 3.316160e-04, 1.231009e-03, nan, nan, nan, nan, 0.000000e+00, 0.000000e+00, 0.000000e+00, 1.932233e+01, 7.992749e-03, 6.746762e-02, -5.680882e-02, 0.000000e+00, 0.000000e+00, -1.019577e-02, 3.203860e-02, -1.323822e+00, -1.308221e+00, nan, nan, nan, nan, nan, nan, nan, nan, nan, nan, nan, 3.038926e+00, 1.810099e+00, 3.211877e+00, 1.600263e+00, 1.618706e+00, 3.230319e+00, 1.791656e+00, 3.020483e+00, nan, nan, nan, nan, nan, nan, nan, nan, nan, nan, nan, nan, nan, nan, nan, nan, nan, nan, nan, nan, 0.000000e+00, nan, nan, nan, nan, nan, nan, nan, nan, nan, nan, nan, nan, nan, nan, nan
[2025-04-09 22:37:21.128369] [0x00007f006e7d1f80] [info] [0x00010092] [12] 1.644288e+00, 1.500000e-01, 4.031576e-05, 2.976752e-06, -1.077417e-05, 3.177947e-03, 2.336864e-04, -8.484957e-04, 1.859890e-01, 1.358021e-02, -4.957851e-02, 7.340165e-02, -3.012669e-02, -4.420806e-02, nan, 2.912606e-02, 2.101574e-04, -5.037019e-02, nan, nan, nan, nan, -4.478118e-03, 2.186302e-02, 2.726914e-04, -4.768860e-05, -3.623920e-02, 8.332467e-02, -2.486142e-04, 1.505236e-04, 1.647677e-03, nan, nan, nan, nan, 0.000000e+00, 0.000000e+00, 0.000000e+00, 1.935200e+01, -1.481804e-01, -2.371377e-02, -2.722181e-02, 0.000000e+00, 0.000000e+00, -2.807250e-02, 1.754222e-02, -3.484188e+00, -2.833809e+00, nan, nan, nan, nan, nan, nan, nan, nan, nan, nan, nan, 2.621949e+00, 1.874132e+00, 2.896595e+00, 2.283322e+00, 1.941404e+00, 2.554677e+00, 2.216050e+00, 2.963867e+00, nan, nan, nan, nan, nan, nan, nan, nan, nan, nan, nan, nan, nan, nan, nan, nan, nan, nan, nan, nan, 0.000000e+00, nan, nan, nan, nan, nan, nan, nan, nan, nan, nan, nan, nan, nan, nan, nan
[2025-04-09 22:37:21.188220] [0x00007f006e7d1f80] [info] [0x00010092] [13] 1.704271e+00, 1.550000e-01, 5.868075e-05, 4.325739e-06, -1.567632e-05, 4.198737e-03, 3.081107e-04, -1.120513e-03, 2.228172e-01, 1.622260e-02, -5.935704e-02, 7.325046e-02, -3.034866e-02, -4.458139e-02, nan, 2.909137e-02, 3.447290e-04, -5.036654e-02, nan, nan, nan, nan, -6.938165e-03, 2.691457e-02, 7.292676e-04, 1.314491e-02, -2.139539e-02, 6.469939e-02, -1.828583e-04, 4.361643e-05, 1.971197e-03, nan, nan, nan, nan, 0.000000e+00, 0.000000e+00, 0.000000e+00, 1.937907e+01, -2.121287e-01, -1.015886e-01, -9.924546e-03, 0.000000e+00, 0.000000e+00, -4.881639e-02, -2.650883e-03, -4.113181e+00, -3.983867e+00, nan, nan, nan, nan, nan, nan, nan, nan, nan, nan, nan, 2.445797e+00, 1.909495e+00, 2.647084e+00, 2.687158e+00, 2.197683e+00, 2.157609e+00, 2.398970e+00, 2.935272e+00, nan, nan, nan, nan, nan, nan, nan, nan, nan, nan, nan, nan, nan, nan, nan, nan, nan, nan, nan, nan, 0.000000e+00, nan, nan, nan, nan, nan, nan, nan, nan, nan, nan, nan, nan, nan, nan, nan
[2025-04-09 22:37:21.240430] [0x00007f006e7d1f80] [info] [0x00010092] [14] 1.756966e+00, 1.600000e-01, 8.262218e-05, 6.080695e-06, -2.206397e-05, 5.410937e-03, 3.962355e-04, -1.443327e-03, 2.625361e-01, 1.905884e-02, -6.989187e-02, 7.309816e-02, -3.057251e-02, -4.495780e-02, nan, 2.905367e-02, 4.872795e-04, -5.036407e-02, nan, nan, nan, nan, -7.541323e-03, 2.851026e-02, 4.946280e-04, 1.362977e-02, -1.743445e-02, 5.314233e-02, -1.147094e-04, -4.351629e-05, 2.236922e-03, nan, nan, nan, nan, 0.000000e+00, 0.000000e+00, 0.000000e+00, 1.940316e+01, -2.382655e-01, -1.639057e-01, 5.566611e-05, 0.000000e+00, 0.000000e+00, -6.911424e-02, -2.709946e-02, -4.050099e+00, -4.843340e+00, nan, nan, nan, nan, nan, nan, nan, nan, nan, nan, nan, 2.382293e+00, 1.918714e+00, 2.467107e+00, 2.933469e+00, 2.383685e+00, 1.917322e+00, 2.468498e+00, 2.932077e+00, nan, nan, nan, nan, nan, nan, nan, nan, nan, nan, nan, nan, nan, nan, nan, nan, nan, nan, nan, nan, 0.000000e+00, nan, nan, nan, nan, nan, nan, nan, nan, nan, nan, nan, nan, nan, nan, nan
[2025-04-09 22:37:21.296129] [0x00007f006e7d1f80] [info] [0x00010092] [15] 1.811132e+00, 1.650000e-01, 1.131328e-04, 8.312507e-06, -3.020044e-05, 6.828747e-03, 4.990065e-04, -1.820645e-03, 3.050448e-01, 2.207952e-02, -8.115438e-02, 7.294473e-02, -3.079825e-02, -4.533730e-02, nan, 2.901937e-02, 6.302798e-04, -5.036549e-02, nan, nan, nan, nan, -6.859450e-03, 2.860026e-02, -2.832130e-04, 1.158513e-02, -2.250285e-02, 4.678407e-02, -5.680713e-05, -1.560105e-04, 2.470852e-03, nan, nan, nan, nan, 0.000000e+00, 0.000000e+00, 0.000000e+00, 1.942549e+01, -2.494598e-01, -2.143264e-01, 5.214541e-03, 0.000000e+00, 0.000000e+00, -8.756892e-02, -5.482455e-02, -3.693510e+00, -5.504157e+00, nan, nan, nan, nan, nan, nan, nan, nan, nan, nan, nan, 2.379200e+00, 1.901559e+00, 2.346810e+00, 3.085178e+00, 2.509564e+00, 1.771195e+00, 2.477173e+00, 2.954815e+00, nan, nan, nan, nan, nan, nan, nan, nan, nan, nan, nan, nan, nan, nan, nan, nan, nan, nan, nan, nan, 0.000000e+00, nan, nan, nan, nan, nan, nan, nan, nan, nan, nan, nan, nan, nan, nan, nan
[2025-04-09 22:37:21.354823] [0x00007f006e7d1f80] [info] [0x00010092] [16] 1.869611e+00, 1.700000e-01, 1.512752e-04, 1.109667e-05, -4.036722e-05, 8.465868e-03, 6.173227e-04, -2.256036e-03, 3.502438e-01, 2.527537e-02, -9.311639e-02, 7.279017e-02, -3.102589e-02, -4.571991e-02, nan, 2.898926e-02, 7.646567e-04, -5.037620e-02, nan, nan, nan, nan, -6.021623e-03, 2.687555e-02, -2.142311e-03, 2.638915e-03, -2.542950e-02, 3.532187e-02, -4.365133e-05, -2.831491e-04, 2.647467e-03, nan, nan, nan, nan, 0.000000e+00, 0.000000e+00, 0.000000e+00, 1.944303e+01, -2.386750e-01, -2.721015e-01, 1.355318e-02, 0.000000e+00, 0.000000e+00, -1.026329e-01, -8.593545e-02, -3.028860e+00, -6.178826e+00, nan, nan, nan, nan, nan, nan, nan, nan, nan, nan, nan, 2.371551e+00, 1.938478e+00, 2.150378e+00, 3.261110e+00, 2.710381e+00, 1.599649e+00, 2.489207e+00, 2.922280e+00, nan, nan, nan, nan, nan, nan, nan, nan, nan, nan, nan, nan, nan, nan, nan, nan, nan, nan, nan, nan, 0.000000e+00, nan, nan, nan, nan, nan, nan, nan, nan, nan, nan, nan, nan, nan, nan, nan
[2025-04-09 22:37:21.404918] [0x00007f006e7d1f80] [info] [0x00010092] [17] 1.921524e+00, 1.750000e-01, 1.981791e-04, 1.451307e-05, -5.286331e-05, 1.033551e-02, 7.520369e-04, -2.752928e-03, 3.980352e-01, 2.863727e-02, -1.057501e-01, 7.263447e-02, -3.125545e-02, -4.610564e-02, nan, 2.894078e-02, 8.912708e-04, -5.034791e-02, nan, nan, nan, nan, -9.696272e-03, 2.532274e-02, 5.658183e-03, 1.433395e-02, 1.835248e-02, 2.402884e-02, 2.798993e-05, -1.913857e-04, 2.767611e-03, nan, nan, nan, nan, 0.000000e+00, 0.000000e+00, 0.000000e+00, 1.952545e+01, -2.514904e-01, -4.157043e-01, 2.282092e-02, 0.000000e+00, 0.000000e+00, -1.149156e-01, -1.244075e-01, -2.470267e+00, -7.618187e+00, nan, nan, nan, nan, nan, nan, nan, nan, nan, nan, nan, 2.454908e+00, 1.846154e+00, 1.855931e+00, 3.605731e+00, 3.025431e+00, 1.275631e+00, 2.426454e+00, 3.035208e+00, nan, nan, nan, nan, nan, nan, nan, nan, nan, nan, nan, nan, nan, nan, nan, nan, nan, nan, nan, nan, 0.000000e+00, nan, nan, nan, nan, nan, nan, nan, nan, nan, nan, nan, nan, nan, nan, nan
[2025-04-09 22:37:21.455027] [0x00007f006e7d1f80] [info] [0x00010092] [18] 1.971615e+00, 1.800000e-01, 2.550390e-04, 1.864572e-05, -6.800449e-05, 1.245038e-02, 9.039572e-04, -3.314612e-03, 4.483224e-01, 3.215626e-02, -1.190283e-01, 7.247761e-02, -3.148695e-02, -4.649451e-02, nan, 2.888331e-02, 8.827129e-04, -5.025001e-02, nan, nan, nan, nan, -1.149548e-02, -1.711584e-03, 1.958016e-02, -5.597250e-03, 3.830687e-02, 1.011758e-06, 3.679578e-09, 1.485873e-07, 2.767619e-03, nan, nan, nan, nan, 0.000000e+00, 0.000000e+00, 0.000000e+00, 1.964598e+01, -5.214512e-02, -5.393745e-01, 3.306922e-02, 0.000000e+00, 0.000000e+00, -1.016267e-01, -1.696203e-01, 2.465573e+00, -8.965849e+00, nan, nan, nan, nan, nan, nan, nan, nan, nan, nan, nan, 2.747274e+00, 2.043898e+00, 1.337489e+00, 3.694327e+00, 3.574005e+00, 1.217167e+00, 2.164219e+00, 2.867596e+00, nan, nan, nan, nan, nan, nan, nan, nan, nan, nan, nan, nan, nan, nan, nan, nan, nan, nan, nan, nan, 0.000000e+00, nan, nan, nan, nan, nan, nan, nan, nan, nan, nan, nan, nan, nan, nan, nan
[2025-04-09 22:37:21.506891] [0x00007f006e7d1f80] [info] [0x00010092] [19] 2.023469e+00, 1.850000e-01, 3.231120e-04, 2.358259e-05, -8.612268e-05, 1.482273e-02, 1.073847e-03, -3.944241e-03, 5.010104e-01, 3.582352e-02, -1.329240e-01, 7.231960e-02, -3.172040e-02, -4.688653e-02, nan, 2.888336e-02, 8.827131e-04, -5.024999e-02, nan, nan, nan, nan, 1.069496e-05, 2.959866e-08, 3.907491e-06, -6.245734e-12, -3.562030e-05, 1.333297e-12, 3.679547e-09, -2.951420e-08, 2.767619e-03, nan, nan, nan, nan, 0.000000e+00, 0.000000e+00, 0.000000e+00, 1.955671e+01, -5.269187e-02, -5.079578e-01, 3.283618e-02, 0.000000e+00, 0.000000e+00, -9.045988e-02, -2.080965e-01, 2.235443e+00, -7.719389e+00, nan, nan, nan, nan, nan, nan, nan, nan, nan, nan, nan, 2.693837e+00, 2.073757e+00, 1.374436e+00, 3.636325e+00, 3.514741e+00, 1.252853e+00, 2.195341e+00, 2.815420e+00, nan, nan, nan, nan, nan, nan, nan, nan, nan, nan, nan, nan, nan, nan, nan, nan, nan, nan, nan, nan, 0.000000e+00, nan, nan, nan, nan, nan, nan, nan, nan, nan, nan, nan, nan, nan, nan, nan
[2025-04-09 22:37:21.562024] [0x00007f006e7d1f80] [info] [0x00010092] [20] 2.078585e+00, 1.900000e-01, 4.037151e-04, 2.941534e-05, -1.075652e-04, 1.746433e-02, 1.262425e-03, -4.644836e-03, 5.560058e-01, 3.963038e-02, -1.474107e-01, 7.216041e-02, -3.195582e-02, -4.728171e-02, nan, 2.888334e-02, 8.827130e-04, -5.024999e-02, nan, nan, nan, nan, -3.564985e-06, -9.866379e-09, -4.643070e-07, 5.152668e-13, 1.187344e-05, -1.251232e-14, 3.679549e-09, 2.985298e-08, 2.767619e-03, nan, nan, nan, nan, 0.000000e+00, 0.000000e+00, 0.000000e+00, 1.959824e+01, -4.211286e-02, -5.911989e-01, 3.208042e-02, 0.000000e+00, 0.000000e+00, -7.964404e-02, -2.511550e-01, 2.159689e+00, -8.555347e+00, nan, nan, nan, nan, nan, nan, nan, nan, nan, nan, nan, 2.838750e+00, 1.963637e+00, 1.258799e+00, 3.737934e+00, 3.640761e+00, 1.161626e+00, 2.060810e+00, 2.935923e+00, nan, nan, nan, nan, nan, nan, nan, nan, nan, nan, nan, nan, nan, nan, nan, nan, nan, nan, nan, nan, 0.000000e+00, nan, nan, nan, nan, nan, nan, nan, nan, nan, nan, nan, nan, nan, nan, nan
[2025-04-09 22:37:21.616778] [0x00007f006e7d1f80] [info] [0x00010092] [21] 2.133336e+00, 1.950000e-01, 4.982229e-04, 3.623912e-05, -1.326941e-04, 2.038648e-02, 1.470369e-03, -5.419289e-03, 6.132162e-01, 4.356832e-02, -1.624623e-01, 7.200004e-02, -3.219322e-02, -4.768007e-02, nan, 2.888336e-02, 8.827131e-04, -5.024999e-02, nan, nan, nan, nan, 3.564985e-06, 9.866399e-09, 2.314761e-07, -3.842777e-13, -1.187344e-05, -4.710364e-14, 3.679547e-09, -2.951420e-08, 2.767619e-03, nan, nan, nan, nan, 0.000000e+00, 0.000000e+00, 0.000000e+00, 1.964320e+01, -3.212303e-02, -6.792891e-01, 3.134678e-02, 0.000000e+00, 0.000000e+00, -6.923705e-02, -2.982913e-01, 2.078365e+00, -9.369354e+00, nan, nan, nan, nan, nan, nan, nan, nan, nan, nan, nan, 2.990015e+00, 1.846664e+00, 1.137117e+00, 3.847806e+00, 3.773684e+00, 1.062995e+00, 1.920786e+00, 3.064137e+00, nan, nan, nan, nan, nan, nan, nan, nan, nan, nan, nan, nan, nan, nan, nan, nan, nan, nan, nan, nan, 0.000000e+00, nan, nan, nan, nan, nan, nan, nan, nan, nan, nan, nan, nan, nan, nan, nan
[2025-04-09 22:37:21.676860] [0x00007f006e7d1f80] [info] [0x00010092] [22] 2.193420e+00, 2.000000e-01, 6.080656e-04, 4.415236e-05, -1.618858e-04, 2.360003e-02, 1.698313e-03, -6.270358e-03, 6.725511e-01, 4.762896e-02, -1.780533e-01, 7.183847e-02, -3.243263e-02, -4.808161e-02, nan, 2.888334e-02, 8.827130e-04, -5.024999e-02, nan, nan, nan, nan, -3.564985e-06, -9.866379e-09, -4.643070e-07, 5.152903e-13, 1.187344e-05, -1.242812e-14, 3.679550e-09, 2.985298e-08, 2.767619e-03, nan, nan, nan, nan, 0.000000e+00, 0.000000e+00, 0.000000e+00, 1.969179e+01, -2.274719e-02, -7.723514e-01, 3.063629e-02, 0.000000e+00, 0.000000e+00, -5.926473e-02, -3.494068e-01, 1.991878e+00, -1.016362e+01, nan, nan, nan, nan, nan, nan, nan, nan, nan, nan, nan, 3.147786e+00, 1.722673e+00, 1.009254e+00, 3.966181e+00, 3.913693e+00, 9.567656e-01, 1.775161e+00, 3.200274e+00, nan, nan, nan, nan, nan, nan, nan, nan, nan, nan, nan, nan, nan, nan, nan, nan, nan, nan, nan, nan, 0.000000e+00, nan, nan, nan, nan, nan, nan, nan, nan, nan, nan, nan, nan, nan, nan, nan
[2025-04-09 22:37:21.736549] [0x00007f006e7d1f80] [info] [0x00010092] [23] 2.252129e+00, 2.050000e-01, 7.347262e-04, 5.325657e-05, -1.955298e-04, 2.711538e-02, 1.946849e-03, -7.200679e-03, 7.339212e-01, 5.180405e-02, -1.941583e-01, 7.167571e-02, -3.267404e-02, -4.848635e-02, nan, 2.888336e-02, 8.827131e-04, -5.024999e-02, nan, nan, nan, nan, 3.564985e-06, 9.866394e-09, 2.314761e-07, -3.045911e-13, -1.187343e-05, -1.126327e-13, 3.679548e-09, -2.951420e-08, 2.767619e-03, nan, nan, nan, nan, 0.000000e+00, 0.000000e+00, 0.000000e+00, 1.974417e+01, -1.397789e-02, -8.698546e-01, 2.994873e-02, 0.000000e+00, 0.000000e+00, -4.974690e-02, -4.043555e-01, 1.901396e+00, -1.092910e+01, nan, nan, nan, nan, nan, nan, nan, nan, nan, nan, nan, 3.311345e+00, 1.592444e+00, 8.759786e-01, 4.092316e+00, 4.060063e+00, 8.437254e-01, 1.624697e+00, 3.343598e+00, nan, nan, nan, nan, nan, nan, nan, nan, nan, nan, nan, nan, nan, nan, nan, nan, nan, nan, nan, nan, 0.000000e+00, nan, nan, nan, nan, nan, nan, nan, nan, nan, nan, nan, nan, nan, nan, nan
[2025-04-09 22:37:21.791576] [0x00007f006e7d1f80] [info] [0x00010092] [24] 2.306545e+00, 2.100000e-01, 8.797390e-04, 6.365610e-05, -2.340288e-04, 3.094249e-02, 2.216531e-03, -8.212757e-03, 7.972387e-01, 5.608553e-02, -2.107526e-01, 7.151173e-02, -3.291749e-02, -4.889430e-02, nan, 2.888334e-02, 8.827130e-04, -5.024999e-02, nan, nan, nan, nan, -3.564985e-06, -9.866379e-09, -4.643070e-07, 5.152949e-13, 1.187344e-05, -1.242985e-14, 3.679551e-09, 2.985298e-08, 2.767619e-03, nan, nan, nan, nan, 0.000000e+00, 0.000000e+00, 0.000000e+00, 1.980057e+01, -5.829470e-03, -9.718189e-01, 2.928472e-02, 0.000000e+00, 0.000000e+00, -4.070136e-02, -4.630004e-01, 1.807345e+00, -1.166721e+01, nan, nan, nan, nan, nan, nan, nan, nan, nan, nan, nan, 3.480723e+00, 1.455967e+00, 7.373005e-01, 4.226292e+00, 4.212841e+00, 7.238494e-01, 1.469419e+00, 3.494174e+00, nan, nan, nan, nan, nan, nan, nan, nan, nan, nan, nan, nan, nan, nan, nan, nan, nan, nan, nan, nan, 0.000000e+00, nan, nan, nan, nan, nan, nan, nan, nan, nan, nan, nan, nan, nan, nan, nan
[2025-04-09 22:37:21.842131] [0x00007f006e7d1f80] [info] [0x00010092] [25] 2.358175e+00, 2.150000e-01, 1.044687e-03, 7.545797e-05, -2.777976e-04, 3.509087e-02, 2.507869e-03, -9.308979e-03, 8.624172e-01, 6.046543e-02, -2.278117e-01, 7.134653e-02, -3.316299e-02, -4.930547e-02, nan, 2.888336e-02, 8.827131e-04, -5.024999e-02, nan, nan, nan, nan, 3.564985e-06, 9.866394e-09, 2.314761e-07, -3.045854e-13, -1.187343e-05, -1.126334e-13, 3.679549e-09, -2.951420e-08, 2.767619e-03, nan, nan, nan, nan, 0.000000e+00, 0.000000e+00, 0.000000e+00, 1.986117e+01, 1.712209e-03, -1.077684e+00, 2.864373e-02, 0.000000e+00, 0.000000e+00, -3.214039e-02, -5.251603e-01, 1.710809e+00, -1.236949e+01, nan, nan, nan, nan, nan, nan, nan, nan, nan, nan, nan, 3.655172e+00, 1.314072e+00, 6.275000e-01, 4.367314e+00, 4.371265e+00, 6.275000e-01, 1.310121e+00, 3.651221e+00, nan, nan, nan, nan, nan, nan, nan, nan, nan, nan, nan, nan, nan, nan, nan, nan, nan, nan, nan, nan, 0.000000e+00, nan, nan, nan, nan, nan, nan, nan, nan, nan, nan, nan, nan, nan, nan, nan
[2025-04-09 22:37:21.897017] [0x00007f006e7d1f80] [info] [0x00010092] [26] 2.413018e+00, 2.200000e-01, 1.231198e-03, 8.877167e-05, -3.272626e-04, 3.956962e-02, 2.821336e-03, -1.049161e-02, 9.293716e-01, 6.493595e-02, -2.453116e-01, 7.118009e-02, -3.341055e-02, -4.971987e-02, nan, 2.888334e-02, 8.827130e-04, -5.024999e-02, nan, nan, nan, nan, -3.564985e-06, -9.866379e-09, -4.643070e-07, 5.153100e-13, 1.187344e-05, -1.241741e-14, 3.679552e-09, 2.985298e-08, 2.767619e-03, nan, nan, nan, nan, 0.000000e+00, 0.000000e+00, 0.000000e+00, 1.992623e+01, 8.639252e-03, -1.187441e+00, 2.802611e-02, 0.000000e+00, 0.000000e+00, -2.407461e-02, -5.906653e-01, 1.612138e+00, -1.303784e+01, nan, nan, nan, nan, nan, nan, nan, nan, nan, nan, nan, 3.834697e+00, 1.166795e+00, 6.275000e-01, 4.515416e+00, 4.535350e+00, 6.275000e-01, 1.146861e+00, 3.814763e+00, nan, nan, nan, nan, nan, nan, nan, nan, nan, nan, nan, nan, nan, nan, nan, nan, nan, nan, nan, nan, 0.000000e+00, nan, nan, nan, nan, nan, nan, nan, nan, nan, nan, nan, nan, nan, nan, nan
[2025-04-09 22:37:21.952143] [0x00007f006e7d1f80] [info] [0x00010092] [27] 2.466915e+00, 2.250000e-01, 1.440948e-03, 1.037089e-04, -3.828613e-04, 4.438741e-02, 3.157366e-03, -1.176279e-02, 9.980184e-01, 6.948942e-02, -2.632287e-01, 7.101242e-02, -3.366020e-02, -5.013750e-02, nan, 2.888336e-02, 8.827131e-04, -5.024999e-02, nan, nan, nan, nan, 3.564985e-06, 9.866394e-09, 2.314761e-07, -3.045911e-13, -1.187343e-05, -1.126364e-13, 3.679550e-09, -2.951419e-08, 2.767619e-03, nan, nan, nan, nan, 0.000000e+00, 0.000000e+00, 0.000000e+00, 1.999594e+01, 1.497148e-02, -1.300507e+00, 2.743108e-02, 0.000000e+00, 0.000000e+00, -1.650954e-02, -6.593043e-01, 1.512331e+00, -1.366439e+01, nan, nan, nan, nan, nan, nan, nan, nan, nan, nan, nan, 4.018528e+00, 1.015003e+00, 6.275000e-01, 4.669759e+00, 4.704305e+00, 6.275000e-01, 9.804570e-01, 3.983982e+00, nan, nan, nan, nan, nan, nan, nan, nan, nan, nan, nan, nan, nan, nan, nan, nan, nan, nan, nan, nan, 0.000000e+00, nan, nan, nan, nan, nan, nan, nan, nan, nan, nan, nan, nan, nan, nan, nan
[2025-04-09 22:37:22.003609] [0x00007f006e7d1f80] [info] [0x00010092] [28] 2.519050e+00, 2.300000e-01, 1.675651e-03, 1.203836e-04, -4.450415e-04, 4.955249e-02, 3.516356e-03, -1.312455e-02, 1.068275e+00, 7.411833e-02, -2.815398e-01, 7.084349e-02, -3.391193e-02, -5.055839e-02, nan, 2.888334e-02, 8.827130e-04, -5.025000e-02, nan, nan, nan, nan, -3.564985e-06, -9.866379e-09, -4.643070e-07, 5.152833e-13, 1.187344e-05, -1.242901e-14, 3.679553e-09, 2.985298e-08, 2.767619e-03, nan, nan, nan, nan, 0.000000e+00, 0.000000e+00, 0.000000e+00, 2.007056e+01, 2.070646e-02, -1.416849e+00, 2.685876e-02, 0.000000e+00, 0.000000e+00, -9.449462e-03, -7.308802e-01, 1.411658e+00, -1.425151e+01, nan, nan, nan, nan, nan, nan, nan, nan, nan, nan, nan, 4.206647e+00, 8.587722e-01, 6.275000e-01, 4.830337e+00, 4.878116e+00, 6.275000e-01, 8.109932e-01, 4.158868e+00, nan, nan, nan, nan, nan, nan, nan, nan, nan, nan, nan, nan, nan, nan, nan, nan, nan, nan, nan, nan, 0.000000e+00, nan, nan, nan, nan, nan, nan, nan, nan, nan, nan, nan, nan, nan, nan, nan
[2025-04-09 22:37:22.054915] [0x00007f006e7d1f80] [info] [0x00010092] [29] 2.571435e+00, 2.350000e-01, 1.937065e-03, 1.389114e-04, -5.142610e-04, 5.507271e-02, 3.898663e-03, -1.457881e-02, 1.140061e+00, 7.881528e-02, -3.002221e-01, 7.067330e-02, -3.416579e-02, -5.098253e-02, nan, 2.888686e-02, 8.827228e-04, -5.025110e-02, nan, nan, nan, nan, 7.039537e-04, 1.948210e-06, -2.211916e-04, -2.329022e-10, -2.344569e-03, 8.626958e-12, 3.678388e-09, -1.169299e-05, 2.767619e-03, nan, nan, nan, nan, 0.000000e+00, 0.000000e+00, 0.000000e+00, 2.014730e+01, 2.618276e-02, -1.528900e+00, 2.629599e-02, 0.000000e+00, 0.000000e+00, -2.852411e-03, -8.045638e-01, 1.319024e+00, -1.467784e+01, nan, nan, nan, nan, nan, nan, nan, nan, nan, nan, nan, 4.388526e+00, 7.087139e-01, 6.275000e-01, 4.985511e+00, 5.045926e+00, 6.275000e-01, 6.482986e-01, 4.328111e+00, nan, nan, nan, nan, nan, nan, nan, nan, nan, nan, nan, nan, nan, nan, nan, nan, nan, nan, nan, nan, 0.000000e+00, nan, nan, nan, nan, nan, nan, nan, nan, nan, nan, nan, nan, nan, nan, nan
[2025-04-09 22:37:22.106841] [0x00007f006e7d1f80] [info] [0x00010092] [30] 2.622868e+00, 2.400000e-01, 2.226983e-03, 1.594096e-04, -5.909868e-04, 6.095552e-02, 4.304610e-03, -1.612735e-02, 1.213297e+00, 8.357303e-02, -3.192531e-01, 7.050183e-02, -3.442177e-02, -5.140993e-02, nan, 2.890038e-02, 8.827602e-04, -5.025544e-02, nan, nan, nan, nan, 2.704415e-03, 7.484708e-06, -8.680395e-04, -3.380876e-10, -9.007241e-03, 3.313609e-11, 3.676698e-09, -5.672920e-05, 2.767619e-03, nan, nan, nan, nan, 0.000000e+00, 0.000000e+00, 0.000000e+00, 2.022330e+01, 3.169504e-02, -1.630281e+00, 2.573131e-02, 0.000000e+00, 0.000000e+00, 3.354723e-03, -8.791121e-01, 1.240732e+00, -1.485943e+01, nan, nan, nan, nan, nan, nan, nan, nan, nan, nan, nan, 4.555244e+00, 6.275000e-01, 6.275000e-01, 5.125392e+00, 5.198527e+00, 6.275000e-01, 6.275000e-01, 4.482109e+00, nan, nan, nan, nan, nan, nan, nan, nan, nan, nan, nan, nan, nan, nan, nan, nan, nan, nan, nan, nan, 0.000000e+00, nan, nan, nan, nan, nan, nan, nan, nan, nan, nan, nan, nan, nan, nan, nan
[2025-04-09 22:37:22.166719] [0x00007f006e7d1f80] [info] [0x00010092] [31] 2.683279e+00, 2.450000e-01, 2.547236e-03, 1.819973e-04, -6.756945e-04, 6.720797e-02, 4.734483e-03, -1.777188e-02, 1.287905e+00, 8.838446e-02, -3.386108e-01, 7.032907e-02, -3.467989e-02, -5.184060e-02, nan, 2.893013e-02, 8.828425e-04, -5.026496e-02, nan, nan, nan, nan, 5.948803e-03, 1.646384e-05, -1.904113e-03, -7.414117e-10, -1.981269e-02, 7.288732e-11, 3.672991e-09, -1.557926e-04, 2.767619e-03, nan, nan, nan, nan, 0.000000e+00, 0.000000e+00, 0.000000e+00, 2.029846e+01, 3.727483e-02, -1.720596e+00, 2.516339e-02, 0.000000e+00, 0.000000e+00, 9.236299e-03, -9.534344e-01, 1.175329e+00, -1.482254e+01, nan, nan, nan, nan, nan, nan, nan, nan, nan, nan, nan, 4.706279e+00, 6.275000e-01, 6.275000e-01, 5.249355e+00, 5.335364e+00, 6.275000e-01, 6.275000e-01, 4.620270e+00, nan, nan, nan, nan, nan, nan, nan, nan, nan, nan, nan, nan, nan, nan, nan, nan, nan, nan, nan, nan, 0.000000e+00, nan, nan, nan, nan, nan, nan, nan, nan, nan, nan, nan, nan, nan, nan, nan
[2025-04-09 22:37:22.221934] [0x00007f006e7d1f80] [info] [0x00010092] [32] 2.737464e+00, 2.500000e-01, 2.899690e-03, 2.067948e-04, -7.688682e-04, 7.383673e-02, 5.188532e-03, -1.951397e-02, 1.363807e+00, 9.324260e-02, -3.582736e-01, 7.015503e-02, -3.494018e-02, -5.227455e-02, nan, 2.898173e-02, 8.830101e-04, -5.028151e-02, nan, nan, nan, nan, 1.032091e-02, 3.351246e-05, -3.309211e-03, 1.647996e-05, -3.437327e-02, 3.916963e-10, 8.607279e-08, -3.276590e-04, 2.767619e-03, nan, nan, nan, nan, 0.000000e+00, 0.000000e+00, 0.000000e+00, 2.037284e+01, 4.286637e-02, -1.800239e+00, 2.459458e-02, 0.000000e+00, 0.000000e+00, 1.484151e-02, -1.026624e+00, 1.119847e+00, -1.460346e+01, nan, nan, nan, nan, nan, nan, nan, nan, nan, nan, nan, 4.842104e+00, 6.275000e-01, 6.275000e-01, 5.358057e+00, 5.456968e+00, 6.275000e-01, 6.275000e-01, 4.743192e+00, nan, nan, nan, nan, nan, nan, nan, nan, nan, nan, nan, nan, nan, nan, nan, nan, nan, nan, nan, nan, 0.000000e+00, nan, nan, nan, nan, nan, nan, nan, nan, nan, nan, nan, nan, nan, nan, nan
[2025-04-09 22:37:22.274266] [0x00007f006e7d1f80] [info] [0x00010092] [33] 2.789777e+00, 2.550000e-01, 3.286241e-03, 2.339233e-04, -8.709993e-04, 8.084807e-02, 5.666975e-03, -2.135509e-02, 1.440929e+00, 9.814061e-02, -3.782203e-01, 6.997967e-02, -3.520264e-02, -5.271179e-02, nan, 2.906031e-02, 8.831780e-04, -5.030662e-02, nan, nan, nan, nan, 1.571584e-02, 3.359802e-05, -5.021322e-03, -3.296412e-05, -5.233812e-02, 6.682069e-09, -7.874784e-08, -5.893496e-04, 2.767619e-03, nan, nan, nan, nan, 0.000000e+00, 0.000000e+00, 0.000000e+00, 2.044680e+01, 4.871543e-02, -1.869628e+00, 2.401389e-02, 0.000000e+00, 0.000000e+00, 2.023192e-02, -1.097935e+00, 1.076555e+00, -1.423440e+01, nan, nan, nan, nan, nan, nan, nan, nan, nan, nan, nan, 4.963777e+00, 6.275000e-01, 6.275000e-01, 5.451716e+00, 5.564124e+00, 6.275000e-01, 6.275000e-01, 4.851369e+00, nan, nan, nan, nan, nan, nan, nan, nan, nan, nan, nan, nan, nan, nan, nan, nan, nan, nan, nan, nan, 0.000000e+00, nan, nan, nan, nan, nan, nan, nan, nan, nan, nan, nan, nan, nan, nan, nan
[2025-04-09 22:37:22.325476] [0x00007f006e7d1f80] [info] [0x00010092] [34] 2.841005e+00, 2.600000e-01, 3.708818e-03, 2.635055e-04, -9.825864e-04, 8.824792e-02, 6.169994e-03, -2.329661e-02, 1.519196e+00, 1.030718e-01, -3.984299e-01, 6.980300e-02, -3.546730e-02, -5.315230e-02, nan, 2.917025e-02, 8.834576e-04, -5.034173e-02, nan, nan, nan, nan, 2.198784e-02, 5.590432e-05, -7.021264e-03, -1.648479e-05, -7.322014e-02, -2.083714e-09, -1.611718e-07, -9.554503e-04, 2.767619e-03, nan, nan, nan, nan, 0.000000e+00, 0.000000e+00, 0.000000e+00, 2.052061e+01, 5.439224e-02, -1.929698e+00, 2.344008e-02, 0.000000e+00, 0.000000e+00, 2.542173e-02, -1.166805e+00, 1.036435e+00, -1.375184e+01, nan, nan, nan, nan, nan, nan, nan, nan, nan, nan, nan, 5.071930e+00, 6.275000e-01, 6.275000e-01, 5.532425e+00, 5.657932e+00, 6.275000e-01, 6.275000e-01, 4.946423e+00, nan, nan, nan, nan, nan, nan, nan, nan, nan, nan, nan, nan, nan, nan, nan, nan, nan, nan, nan, nan, 0.000000e+00, nan, nan, nan, nan, nan, nan, nan, nan, nan, nan, nan, nan, nan, nan, nan
[2025-04-09 22:37:22.379318] [0x00007f006e7d1f80] [info] [0x00010092] [35] 2.895370e+00, 2.650000e-01, 4.169377e-03, 2.956645e-04, -1.104135e-03, 9.604182e-02, 6.697737e-03, -2.533979e-02, 1.598535e+00, 1.080295e-01, -4.188819e-01, 6.962499e-02, -3.573417e-02, -5.359612e-02, nan, 2.931543e-02, 8.839089e-04, -5.038808e-02, nan, nan, nan, nan, 2.903565e-02, 9.025647e-05, -9.267505e-03, 3.295745e-05, -9.667918e-02, -3.113612e-08, 3.615583e-09, -1.438846e-03, 2.767619e-03, nan, nan, nan, nan, 0.000000e+00, 0.000000e+00, 0.000000e+00, 2.059464e+01, 5.996611e-02, -1.981089e+00, 2.286993e-02, 0.000000e+00, 0.000000e+00, 3.042864e-02, -1.232805e+00, 9.998313e-01, -1.318285e+01, nan, nan, nan, nan, nan, nan, nan, nan, nan, nan, nan, 5.167635e+00, 6.275000e-01, 6.275000e-01, 5.601015e+00, 5.739383e+00, 6.275000e-01, 6.275000e-01, 5.029266e+00, nan, nan, nan, nan, nan, nan, nan, nan, nan, nan, nan, nan, nan, nan, nan, nan, nan, nan, nan, nan, 0.000000e+00, nan, nan, nan, nan, nan, nan, nan, nan, nan, nan, nan, nan, nan, nan, nan
[2025-04-09 22:37:22.433397] [0x00007f006e7d1f80] [info] [0x00010092] [36] 2.949269e+00, 2.700000e-01, 4.669901e-03, 3.305242e-04, -1.236156e-03, 1.042349e-01, 7.250323e-03, -2.748580e-02, 1.678876e+00, 1.130075e-01, -4.395563e-01, 6.944565e-02, -3.600327e-02, -5.404322e-02, nan, 2.949926e-02, 8.843929e-04, -5.044666e-02, nan, nan, nan, nan, 3.676436e-02, 9.679845e-05, -1.171380e-02, -1.648765e-05, -1.223954e-01, 1.408042e-08, -7.882283e-08, -2.050823e-03, 2.767619e-03, nan, nan, nan, nan, 0.000000e+00, 0.000000e+00, 0.000000e+00, 2.066934e+01, 6.581544e-02, -2.024483e+00, 2.228642e-02, 0.000000e+00, 0.000000e+00, 3.529745e-02, -1.295629e+00, 9.719630e-01, -1.255180e+01, nan, nan, nan, nan, nan, nan, nan, nan, nan, nan, nan, 5.252566e+00, 6.275000e-01, 6.275000e-01, 5.657861e+00, 5.809727e+00, 6.275000e-01, 6.275000e-01, 5.100701e+00, nan, nan, nan, nan, nan, nan, nan, nan, nan, nan, nan, nan, nan, nan, nan, nan, nan, nan, nan, nan, 0.000000e+00, nan, nan, nan, nan, nan, nan, nan, nan, nan, nan, nan, nan, nan, nan, nan
[2025-04-09 22:37:22.486719] [0x00007f006e7d1f80] [info] [0x00010092] [37] 3.002296e+00, 2.750000e-01, 5.212400e-03, 3.682092e-04, -1.379166e-03, 1.128321e-01, 7.827835e-03, -2.973570e-02, 1.760147e+00, 1.179992e-01, -4.604333e-01, 6.926496e-02, -3.627461e-02, -5.449362e-02, nan, 2.972470e-02, 8.850168e-04, -5.051832e-02, nan, nan, nan, nan, 4.508626e-02, 1.247804e-04, -1.432753e-02, -1.922332e-09, -1.500728e-01, -3.818799e-10, -7.883258e-08, -2.801187e-03, 2.767619e-03, nan, nan, nan, nan, 0.000000e+00, 0.000000e+00, 0.000000e+00, 2.074507e+01, 7.142474e-02, -2.060547e+00, 2.171227e-02, 0.000000e+00, 0.000000e+00, 4.002154e-02, -1.355073e+00, 9.431423e-01, -1.187926e+01, nan, nan, nan, nan, nan, nan, nan, nan, nan, nan, nan, 5.326834e+00, 6.275000e-01, 6.275000e-01, 5.704832e+00, 5.869641e+00, 6.275000e-01, 6.275000e-01, 5.162025e+00, nan, nan, nan, nan, nan, nan, nan, nan, nan, nan, nan, nan, nan, nan, nan, nan, nan, nan, nan, nan, 0.000000e+00, nan, nan, nan, nan, nan, nan, nan, nan, nan, nan, nan, nan, nan, nan, nan
[2025-04-09 22:37:22.541471] [0x00007f006e7d1f80] [info] [0x00010092] [38] 3.057009e+00, 2.800000e-01, 5.798904e-03, 4.088442e-04, -1.533687e-03, 1.218379e-01, 8.430328e-03, -3.209044e-02, 1.842280e+00, 1.229986e-01, -4.814935e-01, 6.908290e-02, -3.654821e-02, -5.494732e-02, nan, 2.999429e-02, 8.858067e-04, -5.060377e-02, nan, nan, nan, nan, 5.391650e-02, 1.579747e-04, -1.708359e-02, 1.532125e-05, -1.794404e-01, -2.734405e-05, -1.782136e-09, -3.698389e-03, 2.767482e-03, nan, nan, nan, nan, 0.000000e+00, 0.000000e+00, 0.000000e+00, 2.082219e+01, 7.693212e-02, -2.090001e+00, 2.116327e-02, 0.000000e+00, 0.000000e+00, 4.460550e-02, -1.411029e+00, 9.151647e-01, -1.118454e+01, nan, nan, nan, nan, nan, nan, nan, nan, nan, nan, nan, 5.391468e+00, 6.275000e-01, 6.275000e-01, 5.743033e+00, 5.920549e+00, 6.275000e-01, 6.275000e-01, 5.213951e+00, nan, nan, nan, nan, nan, nan, nan, nan, nan, nan, nan, nan, nan, nan, nan, nan, nan, nan, nan, nan, 0.000000e+00, nan, nan, nan, nan, nan, nan, nan, nan, nan, nan, nan, nan, nan, nan, nan
[2025-04-09 22:37:22.598167] [0x00007f006e7d1f80] [info] [0x00010092] [39] 3.114220e+00, 2.850000e-01, 6.431466e-03, 4.525542e-04, -1.700247e-03, 1.312563e-01, 9.057824e-03, -3.455090e-02, 1.925207e+00, 1.279997e-01, -5.027180e-01, 6.889947e-02, -3.682409e-02, -5.540432e-02, nan, 3.030983e-02, 8.875998e-04, -5.070401e-02, nan, nan, nan, nan, 6.310663e-02, 3.585835e-04, -2.003886e-02, 3.981613e-04, -2.103533e-01, -6.692791e-04, 2.003165e-06, -4.750155e-03, 2.764135e-03, nan, nan, nan, nan, 0.000000e+00, 0.000000e+00, 0.000000e+00, 2.090079e+01, 8.078288e-02, -2.113839e+00, 2.118359e-02, 0.000000e+00, 0.000000e+00, 4.890858e-02, -1.463525e+00, 8.601625e-01, -1.049455e+01, nan, nan, nan, nan, nan, nan, nan, nan, nan, nan, nan, 5.439294e+00, 6.275000e-01, 6.275000e-01, 5.782482e+00, 5.968884e+00, 6.275000e-01, 6.275000e-01, 5.252892e+00, nan, nan, nan, nan, nan, nan, nan, nan, nan, nan, nan, nan, nan, nan, nan, nan, nan, nan, nan, nan, 0.000000e+00, nan, nan, nan, nan, nan, nan, nan, nan, nan, nan, nan, nan, nan, nan, nan
[2025-04-09 22:37:22.663449] [0x00007f006e7d1f80] [info] [0x00010092] [40] 3.178492e+00, 2.900000e-01, 7.112160e-03, 4.994641e-04, -1.879374e-03, 1.410911e-01, 9.710317e-03, -3.711786e-02, 2.008863e+00, 1.329964e-01, -5.240881e-01, 6.871466e-02, -3.710226e-02, -5.586463e-02, nan, 3.067302e-02, 8.909860e-04, -5.081973e-02, nan, nan, nan, nan, 7.263323e-02, 6.771237e-04, -2.313227e-02, 8.954265e-04, -2.428670e-01, -2.159179e-03, 6.538164e-06, -5.964490e-03, 2.753333e-03, nan, nan, nan, nan, 0.000000e+00, 0.000000e+00, 0.000000e+00, 2.098134e+01, 8.346786e-02, -2.132189e+00, 2.194317e-02, 0.000000e+00, 0.000000e+00, 5.284798e-02, -1.512616e+00, 7.882714e-01, -9.814892e+00, nan, nan, nan, nan, nan, nan, nan, nan, nan, nan, nan, 5.468993e+00, 6.275000e-01, 6.275000e-01, 5.824974e+00, 6.017572e+00, 6.275000e-01, 6.275000e-01, 5.276395e+00, nan, nan, nan, nan, nan, nan, nan, nan, nan, nan, nan, nan, nan, nan, nan, nan, nan, nan, nan, nan, 0.000000e+00, nan, nan, nan, nan, nan, nan, nan, nan, nan, nan, nan, nan, nan, nan, nan
[2025-04-09 22:37:22.724250] [0x00007f006e7d1f80] [info] [0x00010092] [41] 3.239800e+00, 2.950000e-01, 7.843078e-03, 5.496990e-04, -2.071604e-03, 1.513460e-01, 1.038777e-02, -3.979200e-02, 2.093181e+00, 1.379830e-01, -5.455856e-01, 6.852844e-02, -3.738274e-02, -5.632822e-02, nan, 3.108533e-02, 8.962582e-04, -5.095138e-02, nan, nan, nan, nan, 8.245800e-02, 1.054161e-03, -2.631620e-02, 1.326850e-03, -2.768258e-01, -4.461140e-03, 1.332099e-05, -7.348619e-03, 2.731013e-03, nan, nan, nan, nan, 0.000000e+00, 0.000000e+00, 0.000000e+00, 2.106427e+01, 8.550276e-02, -2.145523e+00, 2.339367e-02, 0.000000e+00, 0.000000e+00, 5.639524e-02, -1.558391e+00, 7.102987e-01, -9.153109e+00, nan, nan, nan, nan, nan, nan, nan, nan, nan, nan, nan, 5.482489e+00, 6.275000e-01, 6.275000e-01, 5.870037e+00, 6.067330e+00, 6.275000e-01, 6.275000e-01, 5.285196e+00, nan, nan, nan, nan, nan, nan, nan, nan, nan, nan, nan, nan, nan, nan, nan, nan, nan, nan, nan, nan, 0.000000e+00, nan, nan, nan, nan, nan, nan, nan, nan, nan, nan, nan, nan, nan, nan, nan
[2025-04-09 22:37:22.775965] [0x00007f006e7d1f80] [info] [0x00010092] [42] 3.291300e+00, 3.000000e-01, 8.626326e-03, 6.033833e-04, -2.277474e-03, 1.620239e-01, 1.109012e-02, -4.257390e-02, 2.178098e+00, 1.429538e-01, -5.671924e-01, 6.834082e-02, -3.766555e-02, -5.679512e-02, nan, 3.154811e-02, 9.036234e-04, -5.109922e-02, nan, nan, nan, nan, 9.255036e-02, 1.472550e-03, -2.954898e-02, 1.696101e-03, -3.120116e-01, -7.393455e-03, 2.210222e-05, -8.908676e-03, 2.694017e-03, nan, nan, nan, nan, 0.000000e+00, 0.000000e+00, 0.000000e+00, 2.114997e+01, 8.697429e-02, -2.154340e+00, 2.538757e-02, 0.000000e+00, 0.000000e+00, 5.953682e-02, -1.600967e+00, 6.295042e-01, -8.514299e+00, nan, nan, nan, nan, nan, nan, nan, nan, nan, nan, nan, 5.482481e+00, 6.275000e-01, 6.275000e-01, 5.916482e+00, 6.117170e+00, 6.275000e-01, 6.275000e-01, 5.281793e+00, nan, nan, nan, nan, nan, nan, nan, nan, nan, nan, nan, nan, nan, nan, nan, nan, nan, nan, nan, nan, 0.000000e+00, nan, nan, nan, nan, nan, nan, nan, nan, nan, nan, nan, nan, nan, nan, nan
[2025-04-09 22:37:22.828598] [0x00007f006e7d1f80] [info] [0x00010092] [43] 3.344618e+00, 3.050000e-01, 9.464027e-03, 6.606415e-04, -2.497523e-03, 1.731279e-01, 1.181727e-02, -4.546408e-02, 2.263551e+00, 1.479034e-01, -5.888912e-01, 6.815178e-02, -3.795069e-02, -5.726531e-02, nan, 3.206242e-02, 9.130733e-04, -5.126339e-02, nan, nan, nan, nan, 1.028560e-01, 1.889196e-03, -3.281056e-02, 1.925032e-03, -3.481192e-01, -1.076066e-02, 3.225400e-05, -1.064927e-02, 2.640164e-03, nan, nan, nan, nan, 0.000000e+00, 0.000000e+00, 0.000000e+00, 2.123883e+01, 8.822839e-02, -2.159406e+00, 2.775381e-02, 0.000000e+00, 0.000000e+00, 6.229430e-02, -1.640504e+00, 5.527583e-01, -7.907115e+00, nan, nan, nan, nan, nan, nan, nan, nan, nan, nan, nan, 5.472644e+00, 6.275000e-01, 6.275000e-01, 5.962907e+00, 6.166489e+00, 6.275000e-01, 6.275000e-01, 5.269062e+00, nan, nan, nan, nan, nan, nan, nan, nan, nan, nan, nan, nan, nan, nan, nan, nan, nan, nan, nan, nan, 0.000000e+00, nan, nan, nan, nan, nan, nan, nan, nan, nan, nan, nan, nan, nan, nan, nan
[2025-04-09 22:37:22.881071] [0x00007f006e7d1f80] [info] [0x00010092] [44] 3.397608e+00, 3.100000e-01, 1.035832e-02, 7.215972e-04, -2.732296e-03, 1.846602e-01, 1.256911e-02, -4.846294e-02, 2.349479e+00, 1.528262e-01, -6.106647e-01, 6.796131e-02, -3.823820e-02, -5.773879e-02, nan, 3.262927e-02, 9.245792e-04, -5.144388e-02, nan, nan, nan, nan, 1.133606e-01, 2.300035e-03, -3.606890e-02, 2.042948e-03, -3.850183e-01, -1.443711e-02, 4.330783e-05, -1.257436e-02, 2.567901e-03, nan, nan, nan, nan, 0.000000e+00, 0.000000e+00, 0.000000e+00, 2.133114e+01, 8.927848e-02, -2.161059e+00, 3.039185e-02, 0.000000e+00, 0.000000e+00, 6.469066e-02, -1.677166e+00, 4.805732e-01, -7.332456e+00, nan, nan, nan, nan, nan, nan, nan, nan, nan, nan, nan, 5.454762e+00, 6.275000e-01, 6.275000e-01, 6.008553e+00, 6.214558e+00, 6.275000e-01, 6.275000e-01, 5.248757e+00, nan, nan, nan, nan, nan, nan, nan, nan, nan, nan, nan, nan, nan, nan, nan, nan, nan, nan, nan, nan, 0.000000e+00, nan, nan, nan, nan, nan, nan, nan, nan, nan, nan, nan, nan, nan, nan, nan
[2025-04-09 22:37:22.934448] [0x00007f006e7d1f80] [info] [0x00010092] [45] 3.449958e+00, 3.150000e-01, 1.131135e-02, 7.863735e-04, -2.982334e-03, 1.966233e-01, 1.334548e-02, -5.157082e-02, 2.435822e+00, 1.577170e-01, -6.324961e-01, 6.776940e-02, -3.852809e-02, -5.821556e-02, nan, 3.324952e-02, 9.380519e-04, -5.164054e-02, nan, nan, nan, nan, 1.240416e-01, 2.692961e-03, -3.929644e-02, 2.053397e-03, -4.225496e-01, -1.829436e-02, 5.482314e-05, -1.468710e-02, 2.476317e-03, nan, nan, nan, nan, 0.000000e+00, 0.000000e+00, 0.000000e+00, 2.142720e+01, 9.021558e-02, -2.159712e+00, 3.319488e-02, 0.000000e+00, 0.000000e+00, 6.675719e-02, -1.711125e+00, 4.145697e-01, -6.792258e+00, nan, nan, nan, nan, nan, nan, nan, nan, nan, nan, nan, 5.430904e+00, 6.275000e-01, 6.275000e-01, 6.052608e+00, 6.260776e+00, 6.275000e-01, 6.275000e-01, 5.222736e+00, nan, nan, nan, nan, nan, nan, nan, nan, nan, nan, nan, nan, nan, nan, nan, nan, nan, nan, nan, nan, 0.000000e+00, nan, nan, nan, nan, nan, nan, nan, nan, nan, nan, nan, nan, nan, nan, nan
[2025-04-09 22:37:22.987966] [0x00007f006e7d1f80] [info] [0x00010092] [46] 3.504517e+00, 3.200000e-01, 1.232527e-02, 8.550926e-04, -3.248186e-03, 2.090191e-01, 1.414622e-02, -5.478797e-02, 2.522521e+00, 1.625706e-01, -6.543688e-01, 6.757603e-02, -3.882036e-02, -5.869560e-02, nan, 3.392395e-02, 9.533552e-04, -5.185315e-02, nan, nan, nan, nan, 1.348742e-01, 3.058581e-03, -4.248158e-02, 1.977559e-03, -4.605314e-01, -2.217703e-02, 6.646954e-05, -1.698975e-02, 2.365278e-03, nan, nan, nan, nan, 0.000000e+00, 0.000000e+00, 0.000000e+00, 2.152727e+01, 9.109974e-02, -2.155827e+00, 3.603509e-02, 0.000000e+00, 0.000000e+00, 6.853009e-02, -1.742565e+00, 3.557452e-01, -6.288514e+00, nan, nan, nan, nan, nan, nan, nan, nan, nan, nan, nan, 5.403418e+00, 6.275000e-01, 6.275000e-01, 6.094088e+00, 6.304295e+00, 6.275000e-01, 6.275000e-01, 5.193210e+00, nan, nan, nan, nan, nan, nan, nan, nan, nan, nan, nan, nan, nan, nan, nan, nan, nan, nan, nan, nan, 0.000000e+00, nan, nan, nan, nan, nan, nan, nan, nan, nan, nan, nan, nan, nan, nan, nan
[2025-04-09 22:37:23.040868] [0x00007f006e7d1f80] [info] [0x00010092] [47] 3.556392e+00, 3.250000e-01, 1.340226e-02, 9.278760e-04, -3.530396e-03, 2.218490e-01, 1.497112e-02, -5.811455e-02, 2.609518e+00, 1.673819e-01, -6.762668e-01, 6.738119e-02, -3.911505e-02, -5.917892e-02, nan, 3.465322e-02, 9.703161e-04, -5.208142e-02, nan, nan, nan, nan, 1.458391e-01, 3.389566e-03, -4.560646e-02, 1.829723e-03, -4.988248e-01, -2.597192e-02, 7.798993e-05, -1.948387e-02, 2.235217e-03, nan, nan, nan, nan, 0.000000e+00, 0.000000e+00, 0.000000e+00, 2.163159e+01, 9.198825e-02, -2.149777e+00, 3.881832e-02, 0.000000e+00, 0.000000e+00, 7.004845e-02, -1.771671e+00, 3.046965e-01, -5.821834e+00, nan, nan, nan, nan, nan, nan, nan, nan, nan, nan, nan, 5.374112e+00, 6.275000e-01, 6.275000e-01, 6.132312e+00, 6.344570e+00, 6.275000e-01, 6.275000e-01, 5.161854e+00, nan, nan, nan, nan, nan, nan, nan, nan, nan, nan, nan, nan, nan, nan, nan, nan, nan, nan, nan, nan, 0.000000e+00, nan, nan, nan, nan, nan, nan, nan, nan, nan, nan, nan, nan, nan, nan, nan
[2025-04-09 22:37:23.092187] [0x00007f006e7d1f80] [info] [0x00010092] [48] 3.608213e+00, 3.300000e-01, 1.454449e-02, 1.004844e-03, -3.829514e-03, 2.351146e-01, 1.581996e-02, -6.155065e-02, 2.696757e+00, 1.721461e-01, -6.981743e-01, 6.718487e-02, -3.941216e-02, -5.966550e-02, nan, 3.543793e-02, 9.886799e-04, -5.232501e-02, nan, nan, nan, nan, 1.569246e-01, 3.669580e-03, -4.866223e-02, 1.570000e-03, -5.373623e-01, -2.964037e-02, 8.893170e-05, -2.217067e-02, 2.086759e-03, nan, nan, nan, nan, 0.000000e+00, 0.000000e+00, 0.000000e+00, 2.174035e+01, 9.305479e-02, -2.141818e+00, 4.150505e-02, 0.000000e+00, 0.000000e+00, 7.136154e-02, -1.798627e+00, 2.633993e-01, -5.391551e+00, nan, nan, nan, nan, nan, nan, nan, nan, nan, nan, nan, 5.344064e+00, 6.275000e-01, 6.275000e-01, 6.166971e+00, 6.381690e+00, 6.275000e-01, 6.275000e-01, 5.129345e+00, nan, nan, nan, nan, nan, nan, nan, nan, nan, nan, nan, nan, nan, nan, nan, nan, nan, nan, nan, nan, 0.000000e+00, nan, nan, nan, nan, nan, nan, nan, nan, nan, nan, nan, nan, nan, nan, nan
[2025-04-09 22:37:23.146770] [0x00007f006e7d1f80] [info] [0x00010092] [49] 3.661920e+00, 3.350000e-01, 1.575414e-02, 1.086115e-03, -4.146086e-03, 2.488169e-01, 1.669249e-02, -6.509628e-02, 2.784183e+00, 1.768583e-01, -7.200758e-01, 6.698707e-02, -3.971171e-02, -6.015534e-02, nan, 3.627873e-02, 1.008333e-03, -5.258343e-02, nan, nan, nan, nan, 1.681408e-01, 3.926788e-03, -5.161945e-02, 1.320867e-03, -5.761209e-01, -3.309874e-02, 9.945064e-05, -2.505126e-02, 1.920948e-03, nan, nan, nan, nan, 0.000000e+00, 0.000000e+00, 0.000000e+00, 2.185372e+01, 9.403239e-02, -2.131989e+00, 4.403899e-02, 0.000000e+00, 0.000000e+00, 7.249270e-02, -1.823589e+00, 2.269365e-01, -4.992757e+00, nan, nan, nan, nan, nan, nan, nan, nan, nan, nan, nan, 5.313749e+00, 6.275000e-01, 6.275000e-01, 6.197749e+00, 6.414723e+00, 6.275000e-01, 6.275000e-01, 5.096774e+00, nan, nan, nan, nan, nan, nan, nan, nan, nan, nan, nan, nan, nan, nan, nan, nan, nan, nan, nan, nan, 0.000000e+00, nan, nan, nan, nan, nan, nan, nan, nan, nan, nan, nan, nan, nan, nan, nan
[2025-04-09 22:37:23.209269] [0x00007f006e7d1f80] [info] [0x00010092] [50] 3.724306e+00, 3.400000e-01, 1.703339e-02, 1.171808e-03, -4.480659e-03, 2.629567e-01, 1.758845e-02, -6.875137e-02, 2.871740e+00, 1.815138e-01, -7.419561e-01, 6.678775e-02, -4.001372e-02, -6.064842e-02, nan, 3.717616e-02, 1.029000e-03, -5.285620e-02, nan, nan, nan, nan, 1.794633e-01, 4.128892e-03, -5.447961e-02, 9.881457e-04, -6.149933e-01, -3.631047e-02, 1.092283e-04, -2.812620e-02, 1.739010e-03, nan, nan, nan, nan, 0.000000e+00, 0.000000e+00, 0.000000e+00, 2.197191e+01, 9.523645e-02, -2.120642e+00, 4.637552e-02, 0.000000e+00, 0.000000e+00, 7.348919e-02, -1.846723e+00, 1.997348e-01, -4.626931e+00, nan, nan, nan, nan, nan, nan, nan, nan, nan, nan, nan, 5.284609e+00, 6.275000e-01, 6.275000e-01, 6.224244e+00, 6.443997e+00, 6.275000e-01, 6.275000e-01, 5.064856e+00, nan, nan, nan, nan, nan, nan, nan, nan, nan, nan, nan, nan, nan, nan, nan, nan, nan, nan, nan, nan, 0.000000e+00, nan, nan, nan, nan, nan, nan, nan, nan, nan, nan, nan, nan, nan, nan, nan
[2025-04-09 22:37:23.263056] [0x00007f006e7d1f80] [info] [0x00010092] [51] 3.778478e+00, 3.450000e-01, 1.838443e-02, 1.262038e-03, -4.833781e-03, 2.775345e-01, 1.850753e-02, -7.251578e-02, 2.959377e+00, 1.861081e-01, -7.638006e-01, 6.658692e-02, -4.031820e-02, -6.114473e-02, nan, 3.813070e-02, 1.050366e-03, -5.314281e-02, nan, nan, nan, nan, 1.908830e-01, 4.268246e-03, -5.723977e-02, 5.625640e-04, -6.539179e-01, -3.922940e-02, 1.178914e-04, -3.139577e-02, 1.542405e-03, nan, nan, nan, nan, 0.000000e+00, 0.000000e+00, 0.000000e+00, 2.209503e+01, 9.675600e-02, -2.107974e+00, 4.847208e-02, 0.000000e+00, 0.000000e+00, 7.439926e-02, -1.868185e+00, 1.821450e-01, -4.292574e+00, nan, nan, nan, nan, nan, nan, nan, nan, nan, nan, nan, 5.257577e+00, 6.275000e-01, 6.275000e-01, 6.246120e+00, 6.469379e+00, 6.275000e-01, 6.275000e-01, 5.034318e+00, nan, nan, nan, nan, nan, nan, nan, nan, nan, nan, nan, nan, nan, nan, nan, nan, nan, nan, nan, nan, 0.000000e+00, nan, nan, nan, nan, nan, nan, nan, nan, nan, nan, nan, nan, nan, nan, nan
[2025-04-09 22:37:23.315640] [0x00007f006e7d1f80] [info] [0x00010092] [52] 3.832201e+00, 3.500000e-01, 1.980946e-02, 1.356921e-03, -5.205999e-03, 2.925505e-01, 1.944942e-02, -7.638930e-02, 3.047041e+00, 1.906367e-01, -7.855948e-01, 6.638457e-02, -4.062517e-02, -6.164425e-02, nan, 3.914294e-02, 1.072302e-03, -5.344263e-02, nan, nan, nan, nan, 2.024194e-01, 4.381476e-03, -5.987201e-02, 1.848964e-04, -6.929193e-01, -4.179987e-02, 1.257562e-04, -3.486034e-02, 1.332869e-03, nan, nan, nan, nan, 0.000000e+00, 0.000000e+00, 0.000000e+00, 2.222321e+01, 9.825408e-02, -2.093885e+00, 5.029749e-02, 0.000000e+00, 0.000000e+00, 7.523893e-02, -1.888101e+00, 1.679764e-01, -3.983122e+00, nan, nan, nan, nan, nan, nan, nan, nan, nan, nan, nan, 5.232526e+00, 6.275000e-01, 6.275000e-01, 6.263248e+00, 6.489963e+00, 6.275000e-01, 6.275000e-01, 5.005810e+00, nan, nan, nan, nan, nan, nan, nan, nan, nan, nan, nan, nan, nan, nan, nan, nan, nan, nan, nan, nan, 0.000000e+00, nan, nan, nan, nan, nan, nan, nan, nan, nan, nan, nan, nan, nan, nan, nan
[2025-04-09 22:37:23.370418] [0x00007f006e7d1f80] [info] [0x00010092] [53] 3.886902e+00, 3.550000e-01, 2.131067e-02, 1.456570e-03, -5.597856e-03, 3.080048e-01, 2.041378e-02, -8.037162e-02, 3.134682e+00, 1.950953e-01, -8.073246e-01, 6.618067e-02, -4.093465e-02, -6.214699e-02, nan, 4.021332e-02, 1.094455e-03, -5.375511e-02, nan, nan, nan, nan, 2.140433e-01, 4.424256e-03, -6.239329e-02, -2.878162e-04, -7.318922e-01, -4.400929e-02, 1.324116e-04, -3.851977e-02, 1.112201e-03, nan, nan, nan, nan, 0.000000e+00, 0.000000e+00, 0.000000e+00, 2.235658e+01, 1.001605e-01, -2.078722e+00, 5.182076e-02, 0.000000e+00, 0.000000e+00, 7.605704e-02, -1.906607e+00, 1.633198e-01, -3.700941e+00, nan, nan, nan, nan, nan, nan, nan, nan, nan, nan, nan, 5.210849e+00, 6.275000e-01, 6.275000e-01, 6.275253e+00, 6.506368e+00, 6.275000e-01, 6.275000e-01, 4.979734e+00, nan, nan, nan, nan, nan, nan, nan, nan, nan, nan, nan, nan, nan, nan, nan, nan, nan, nan, nan, nan, 0.000000e+00, nan, nan, nan, nan, nan, nan, nan, nan, nan, nan, nan, nan, nan, nan, nan
[2025-04-09 22:37:23.424457] [0x00007f006e7d1f80] [info] [0x00010092] [54] 3.940916e+00, 3.600000e-01, 2.289024e-02, 1.561096e-03, -6.009896e-03, 3.238972e-01, 2.140025e-02, -8.446241e-02, 3.222250e+00, 1.994796e-01, -8.289762e-01, 6.597522e-02, -4.124665e-02, -6.265290e-02, nan, 4.134240e-02, 1.116657e-03, -5.407956e-02, nan, nan, nan, nan, 2.257790e-01, 4.433543e-03, -6.477389e-02, -7.259738e-04, -7.708997e-01, -4.583834e-02, 1.380780e-04, -4.237424e-02, 8.823005e-04, nan, nan, nan, nan, 0.000000e+00, 0.000000e+00, 0.000000e+00, 2.249521e+01, 1.021488e-01, -2.062294e+00, 5.303932e-02, 0.000000e+00, 0.000000e+00, 7.686893e-02, -1.923801e+00, 1.619592e-01, -3.438764e+00, nan, nan, nan, nan, nan, nan, nan, nan, nan, nan, nan, 5.191938e+00, 6.675676e-01, 6.275000e-01, 6.282219e+00, 6.517921e+00, 6.275000e-01, 6.275000e-01, 4.956235e+00, nan, nan, nan, nan, nan, nan, nan, nan, nan, nan, nan, nan, nan, nan, nan, nan, nan, nan, nan, nan, 0.000000e+00, nan, nan, nan, nan, nan, nan, nan, nan, nan, nan, nan, nan, nan, nan, nan
[2025-04-09 22:37:23.477958] [0x00007f006e7d1f80] [info] [0x00010092] [55] 3.994491e+00, 3.650000e-01, 2.455037e-02, 1.670608e-03, -6.442660e-03, 3.402271e-01, 2.240844e-02, -8.866123e-02, 3.309697e+00, 2.037856e-01, -8.505361e-01, 6.576820e-02, -4.156118e-02, -6.316199e-02, nan, 4.253071e-02, 1.138801e-03, -5.441533e-02, nan, nan, nan, nan, 2.376203e-01, 4.421205e-03, -6.702890e-02, -1.139274e-03, -8.100105e-01, -4.744118e-02, 1.429456e-04, -4.642426e-02, 6.442911e-04, nan, nan, nan, nan, 0.000000e+00, 0.000000e+00, 0.000000e+00, 2.263911e+01, 1.041509e-01, -2.044583e+00, 5.407969e-02, 0.000000e+00, 0.000000e+00, 7.767964e-02, -1.939778e+00, 1.616817e-01, -3.195238e+00, nan, nan, nan, nan, nan, nan, nan, nan, nan, nan, nan, 5.174109e+00, 7.259905e-01, 6.275000e-01, 6.285779e+00, 6.526101e+00, 6.275000e-01, 6.275000e-01, 4.933786e+00, nan, nan, nan, nan, nan, nan, nan, nan, nan, nan, nan, nan, nan, nan, nan, nan, nan, nan, nan, nan, 0.000000e+00, nan, nan, nan, nan, nan, nan, nan, nan, nan, nan, nan, nan, nan, nan, nan
[2025-04-09 22:37:23.531165] [0x00007f006e7d1f80] [info] [0x00010092] [56] 4.046722e+00, 3.700000e-01, 2.629324e-02, 1.785216e-03, -6.896687e-03, 3.569939e-01, 2.343797e-02, -9.296760e-02, 3.396975e+00, 2.080092e-01, -8.719912e-01, 6.555960e-02, -4.187827e-02, -6.367423e-02, nan, 4.377883e-02, 1.160884e-03, -5.476179e-02, nan, nan, nan, nan, 2.495774e-01, 4.408671e-03, -6.915356e-02, -1.470174e-03, -8.492796e-01, -4.886223e-02, 1.474947e-04, -5.067062e-02, 3.990746e-04, nan, nan, nan, nan, 0.000000e+00, 0.000000e+00, 0.000000e+00, 2.278826e+01, 1.059752e-01, -2.025474e+00, 5.498581e-02, 0.000000e+00, 0.000000e+00, 7.847758e-02, -1.954610e+00, 1.592180e-01, -2.966281e+00, nan, nan, nan, nan, nan, nan, nan, nan, nan, nan, nan, 5.156427e+00, 7.851696e-01, 6.275000e-01, 6.286541e+00, 6.531072e+00, 6.275000e-01, 6.275000e-01, 4.911895e+00, nan, nan, nan, nan, nan, nan, nan, nan, nan, nan, nan, nan, nan, nan, nan, nan, nan, nan, nan, nan, 0.000000e+00, nan, nan, nan, nan, nan, nan, nan, nan, nan, nan, nan, nan, nan, nan, nan
